$GPRMC,201818.60,A,2732.09578,S,04837.78588,W,0.594,,300519,,*15
$GPRMC,201818.70,A,2732.09579,S,04837.78588,W,0.594,,300519,,*15
$GPRMC,201818.80,A,2732.09577,S,04837.78588,W,0.549,,300519,,*14
$GPRMC,201818.90,A,2732.09575,S,04837.78587,W,0.508,,300519,,*1D
$GPRMC,201819.00,A,2732.09573,S,04837.78587,W,0.470,,300519,,*1D
$GPRMC,201819.10,A,2732.09571,S,04837.78586,W,0.387,,300519,,*10
$GPRMC,201819.20,A,2732.09569,S,04837.78585,W,0.360,,300519,,*10
$GPRMC,201819.30,A,2732.09567,S,04837.78587,W,0.363,,300519,,*1E
$GPRMC,201819.40,A,2732.09565,S,04837.78583,W,0.205,,300519,,*1E
$GPRMC,201819.50,A,2732.09565,S,04837.78583,W,0.168,,300519,,*17
$GPRMC,201819.60,A,2732.09564,S,04837.78583,W,0.149,,300519,,*16
$GPRMC,201819.70,A,2732.09560,S,04837.78585,W,0.140,,300519,,*1C
$GPRMC,201819.80,A,2732.09559,S,04837.78586,W,0.174,,300519,,*1D
$GPRMC,201819.90,A,2732.09558,S,04837.78587,W,0.136,,300519,,*1A
$GPRMC,201820.00,A,2732.09558,S,04837.78587,W,0.047,,300519,,*1E
$GPRMC,201820.10,A,2732.09556,S,04837.78586,W,0.152,,300519,,*15
$GPRMC,201820.20,A,2732.09555,S,04837.78584,W,0.256,,300519,,*10
$GPRMC,201820.30,A,2732.09556,S,04837.78584,W,0.309,,300519,,*19
$GPRMC,201820.40,A,2732.09555,S,04837.78583,W,0.341,,300519,,*16
$GPRMC,201820.50,A,2732.09554,S,04837.78583,W,0.327,,300519,,*16
$GPRMC,201820.60,A,2732.09554,S,04837.78582,W,0.393,,300519,,*1B
$GPRMC,201820.70,A,2732.09552,S,04837.78580,W,0.412,,300519,,*10
$GPRMC,201820.80,A,2732.09550,S,04837.78583,W,0.279,,300519,,*15
$GPRMC,201820.90,A,2732.09550,S,04837.78579,W,0.321,,300519,,*1D
$GPRMC,201821.00,A,2732.09550,S,04837.78576,W,0.364,,300519,,*1B
$GPRMC,201821.10,A,2732.09548,S,04837.78572,W,0.343,,300519,,*12
$GPRMC,201821.20,A,2732.09547,S,04837.78571,W,0.249,,300519,,*16
$GPRMC,201821.30,A,2732.09545,S,04837.78569,W,0.180,,300519,,*1A
$GPRMC,201821.40,A,2732.09545,S,04837.78570,W,0.077,,300519,,*1C
$GPRMC,201821.50,A,2732.09544,S,04837.78572,W,0.184,,300519,,*13
$GPRMC,201821.60,A,2732.09543,S,04837.78572,W,0.305,,300519,,*1C
$GPRMC,201821.70,A,2732.09542,S,04837.78572,W,0.383,,300519,,*12
$GPRMC,201821.80,A,2732.09541,S,04837.78571,W,0.403,,300519,,*12
$GPRMC,201821.90,A,2732.09544,S,04837.78571,W,0.442,,300519,,*13
$GPRMC,201822.00,A,2732.09547,S,04837.78574,W,0.585,,300519,,*15
$GPRMC,201822.10,A,2732.09547,S,04837.78576,W,0.698,,300519,,*19
$GPRMC,201822.20,A,2732.09547,S,04837.78577,W,0.813,,300519,,*16
$GPRMC,201822.30,A,2732.09546,S,04837.78577,W,0.822,,300519,,*14
$GPRMC,201822.40,A,2732.09544,S,04837.78573,W,0.755,,300519,,*1A
$GPRMC,201822.50,A,2732.09541,S,04837.78570,W,0.725,,300519,,*1A
$GPRMC,201822.60,A,2732.09538,S,04837.78565,W,0.639,,300519,,*1F
$GPRMC,201822.70,A,2732.09538,S,04837.78565,W,0.685,,300519,,*19
$GPRMC,201822.80,A,2732.09536,S,04837.78564,W,0.707,,300519,,*12
$GPRMC,201822.90,A,2732.09535,S,04837.78561,W,0.635,,300519,,*15
$GPRMC,201823.00,A,2732.09534,S,04837.78559,W,0.584,,300519,,*1E
$GPRMC,201823.10,A,2732.09531,S,04837.78559,W,0.589,,300519,,*17
$GPRMC,201823.20,A,2732.09527,S,04837.78555,W,0.479,,300519,,*11
$GPRMC,201823.30,A,2732.09527,S,04837.78555,W,0.440,,300519,,*1A
$GPRMC,201823.40,A,2732.09528,S,04837.78551,W,0.319,,300519,,*1D
$GPRMC,201823.50,A,2732.09526,S,04837.78547,W,0.215,,300519,,*18
$GPRMC,201823.60,A,2732.09523,S,04837.78542,W,0.092,,300519,,*16
$GPRMC,201823.70,A,2732.09517,S,04837.78536,W,0.093,,300519,,*12
$GPRMC,201823.80,A,2732.09518,S,04837.78534,W,0.116,,300519,,*1C
$GPRMC,201823.90,A,2732.09522,S,04837.78540,W,0.078,,300519,,*1E
$GPRMC,201824.00,A,2732.09520,S,04837.78539,W,0.019,,300519,,*1B
$GPRMC,201824.10,A,2732.09517,S,04837.78535,W,0.151,,300519,,*1F
$GPRMC,201824.20,A,2732.09515,S,04837.78532,W,0.284,,300519,,*12
$GPRMC,201824.30,A,2732.09514,S,04837.78529,W,0.405,,300519,,*17
$GPRMC,201824.40,A,2732.09514,S,04837.78528,W,0.437,,300519,,*10
$GPRMC,201824.50,A,2732.09513,S,04837.78527,W,0.434,,300519,,*1A
$GPRMC,201824.60,A,2732.09513,S,04837.78526,W,0.432,,300519,,*1E
$GPRMC,201824.70,A,2732.09514,S,04837.78524,W,0.495,,300519,,*17
$GPRMC,201824.80,A,2732.09516,S,04837.78522,W,0.527,,300519,,*14
$GPRMC,201824.90,A,2732.09515,S,04837.78520,W,0.568,,300519,,*1F
$GPRMC,201825.00,A,2732.09514,S,04837.78519,W,0.526,,300519,,*16
$GPRMC,201825.10,A,2732.09513,S,04837.78518,W,0.522,,300519,,*15
$GPRMC,201825.20,A,2732.09513,S,04837.78517,W,0.493,,300519,,*12
$GPRMC,201825.30,A,2732.09512,S,04837.78515,W,0.532,,300519,,*1A
$GPRMC,201825.40,A,2732.09513,S,04837.78515,W,0.451,,300519,,*18
$GPRMC,201825.50,A,2732.09513,S,04837.78514,W,0.443,,300519,,*1B
$GPRMC,201825.60,A,2732.09513,S,04837.78512,W,0.452,,300519,,*1E
$GPRMC,201825.70,A,2732.09511,S,04837.78511,W,0.405,,300519,,*1C
$GPRMC,201825.80,A,2732.09508,S,04837.78510,W,0.351,,300519,,*1C
$GPRMC,201825.90,A,2732.09507,S,04837.78504,W,0.382,,300519,,*19
$GPRMC,201826.00,A,2732.09505,S,04837.78503,W,0.278,,300519,,*12
$GPRMC,201826.10,A,2732.09505,S,04837.78505,W,0.165,,300519,,*1A
$GPRMC,201826.20,A,2732.09506,S,04837.78503,W,0.113,,300519,,*1D
$GPRMC,201826.30,A,2732.09506,S,04837.78502,W,0.081,,300519,,*17
$GPRMC,201826.40,A,2732.09506,S,04837.78500,W,0.086,,300519,,*15
$GPRMC,201826.50,A,2732.09506,S,04837.78499,W,0.174,,300519,,*19
$GPRMC,201826.60,A,2732.09505,S,04837.78499,W,0.304,,300519,,*1C
$GPRMC,201826.70,A,2732.09502,S,04837.78499,W,0.340,,300519,,*1A
$GPRMC,201826.80,A,2732.09500,S,04837.78498,W,0.386,,300519,,*1C
$GPRMC,201826.90,A,2732.09498,S,04837.78496,W,0.382,,300519,,*17
$GPRMC,201827.00,A,2732.09500,S,04837.78495,W,0.417,,300519,,*17
$GPRMC,201827.10,A,2732.09500,S,04837.78494,W,0.417,,300519,,*17
$GPRMC,201827.20,A,2732.09501,S,04837.78495,W,0.452,,300519,,*15
$GPRMC,201827.30,A,2732.09501,S,04837.78494,W,0.444,,300519,,*12
$GPRMC,201827.40,A,2732.09500,S,04837.78494,W,0.391,,300519,,*1B
$GPRMC,201827.50,A,2732.09500,S,04837.78492,W,0.317,,300519,,*12
$GPRMC,201827.60,A,2732.09501,S,04837.78491,W,0.295,,300519,,*18
$GPRMC,201827.70,A,2732.09500,S,04837.78489,W,0.222,,300519,,*1D
$GPRMC,201827.80,A,2732.09499,S,04837.78489,W,0.231,,300519,,*11
$GPRMC,201827.90,A,2732.09496,S,04837.78488,W,0.158,,300519,,*12
$GPRMC,201828.00,A,2732.09493,S,04837.78488,W,0.110,,300519,,*1D
$GPRMC,201828.10,A,2732.09493,S,04837.78486,W,0.023,,300519,,*13
$GPRMC,201828.20,A,2732.09493,S,04837.78485,W,0.083,,300519,,*19
$GPRMC,201828.30,A,2732.09493,S,04837.78483,W,0.210,,300519,,*16
$GPRMC,201828.40,A,2732.09493,S,04837.78480,W,0.338,,300519,,*19
$GPRMC,201828.50,A,2732.09486,S,04837.78474,W,0.556,,300519,,*19
$GPRMC,201828.60,A,2732.09480,S,04837.78468,W,0.784,,300519,,*1C
$GPRMC,201828.70,A,2732.09480,S,04837.78466,W,0.832,,300519,,*11
$GPRMC,201828.80,A,2732.09479,S,04837.78464,W,0.947,,300519,,*19
$GPRMC,201828.90,A,2732.09480,S,04837.78463,W,0.999,,300519,,*1A
$GPRMC,201829.00,A,2732.09478,S,04837.78460,W,1.096,,300519,,*11
$GPRMC,201829.10,A,2732.09476,S,04837.78460,W,1.110,,300519,,*11
$GPRMC,201829.20,A,2732.09475,S,04837.78458,W,1.113,,300519,,*19
$GPRMC,201829.30,A,2732.09474,S,04837.78456,W,1.159,,300519,,*19
$GPRMC,201829.40,A,2732.09473,S,04837.78455,W,1.183,,300519,,*1D
$GPRMC,201829.50,A,2732.09472,S,04837.78455,W,1.147,,300519,,*15
$GPRMC,201829.60,A,2732.09469,S,04837.78454,W,1.129,,300519,,*15
$GPRMC,201829.70,A,2732.09467,S,04837.78453,W,1.124,,300519,,*10
$GPRMC,201829.80,A,2732.09467,S,04837.78453,W,1.023,,300519,,*19
$GPRMC,201829.90,A,2732.09467,S,04837.78452,W,0.929,,300519,,*1B
$GPRMC,201830.00,A,2732.09464,S,04837.78450,W,0.907,,300519,,*17
$GPRMC,201830.10,A,2732.09465,S,04837.78449,W,0.821,,300519,,*1A
$GPRMC,201830.20,A,2732.09467,S,04837.78449,W,0.701,,300519,,*16
$GPRMC,201830.30,A,2732.09468,S,04837.78448,W,0.604,,300519,,*1D
$GPRMC,201830.40,A,2732.09469,S,04837.78446,W,0.488,,300519,,*13
$GPRMC,201830.50,A,2732.09470,S,04837.78446,W,0.321,,300519,,*1E
$GPRMC,201830.60,A,2732.09471,S,04837.78445,W,0.216,,300519,,*1A
$GPRMC,201830.70,A,2732.09472,S,04837.78444,W,0.085,,300519,,*11
$GPRMC,201830.80,A,2732.09473,S,04837.78443,W,0.066,,300519,,*15
$GPRMC,201830.90,A,2732.09475,S,04837.78443,W,0.225,,300519,,*17
$GPRMC,201831.00,A,2732.09476,S,04837.78442,W,0.333,,300519,,*1B
$GPRMC,201831.10,A,2732.09478,S,04837.78441,W,0.439,,300519,,*1A
$GPRMC,201831.20,A,2732.09479,S,04837.78441,W,0.554,,300519,,*12
$GPRMC,201831.30,A,2732.09478,S,04837.78442,W,0.678,,300519,,*1C
$GPRMC,201831.40,A,2732.09477,S,04837.78443,W,0.751,,300519,,*1F
$GPRMC,201831.50,A,2732.09481,S,04837.78446,W,0.894,,300519,,*14
$GPRMC,201831.60,A,2732.09482,S,04837.78446,W,0.888,,300519,,*19
$GPRMC,201831.70,A,2732.09483,S,04837.78443,W,0.823,,300519,,*1D
$GPRMC,201831.80,A,2732.09483,S,04837.78444,W,0.805,,300519,,*11
$GPRMC,201831.90,A,2732.09483,S,04837.78445,W,0.841,,300519,,*11
$GPRMC,201832.00,A,2732.09485,S,04837.78445,W,0.817,,300519,,*1E
$GPRMC,201832.10,A,2732.09487,S,04837.78444,W,0.747,,300519,,*16
$GPRMC,201832.20,A,2732.09487,S,04837.78442,W,0.655,,300519,,*11
$GPRMC,201832.30,A,2732.09488,S,04837.78442,W,0.627,,300519,,*1A
$GPRMC,201832.40,A,2732.09485,S,04837.78441,W,0.512,,300519,,*16
$GPRMC,201832.50,A,2732.09484,S,04837.78441,W,0.411,,300519,,*14
$GPRMC,201832.60,A,2732.09484,S,04837.78441,W,0.329,,300519,,*1B
$GPRMC,201832.70,A,2732.09484,S,04837.78441,W,0.239,,300519,,*1A
$GPRMC,201832.80,A,2732.09485,S,04837.78442,W,0.175,,300519,,*1C
$GPRMC,201832.90,A,2732.09486,S,04837.78444,W,0.139,,300519,,*10
$GPRMC,201833.00,A,2732.09486,S,04837.78444,W,0.091,,300519,,*1B
$GPRMC,201833.10,A,2732.09485,S,04837.78443,W,0.041,,300519,,*13
$GPRMC,201833.20,A,2732.09488,S,04837.78443,W,0.034,,300519,,*1F
$GPRMC,201833.30,A,2732.09490,S,04837.78440,W,0.127,,300519,,*17
$GPRMC,201833.40,A,2732.09489,S,04837.78438,W,0.193,,300519,,*18
$GPRMC,201833.50,A,2732.09490,S,04837.78437,W,0.201,,300519,,*16
$GPRMC,201833.60,A,2732.09489,S,04837.78435,W,0.275,,300519,,*1C
$GPRMC,201833.70,A,2732.09491,S,04837.78433,W,0.252,,300519,,*17
$GPRMC,201833.80,A,2732.09494,S,04837.78432,W,0.234,,300519,,*1C
$GPRMC,201833.90,A,2732.09494,S,04837.78430,W,0.157,,300519,,*19
$GPRMC,201834.00,A,2732.09493,S,04837.78429,W,0.101,,300519,,*1B
$GPRMC,201834.10,A,2732.09491,S,04837.78431,W,0.152,,300519,,*17
$GPRMC,201834.20,A,2732.09490,S,04837.78430,W,0.248,,300519,,*1C
$GPRMC,201834.30,A,2732.09491,S,04837.78430,W,0.331,,300519,,*13
$GPRMC,201834.40,A,2732.09493,S,04837.78428,W,0.366,,300519,,*1D
$GPRMC,201834.50,A,2732.09494,S,04837.78426,W,0.361,,300519,,*12
$GPRMC,201834.60,A,2732.09493,S,04837.78423,W,0.365,,300519,,*17
$GPRMC,201834.70,A,2732.09493,S,04837.78422,W,0.406,,300519,,*15
$GPRMC,201834.80,A,2732.09495,S,04837.78420,W,0.435,,300519,,*1E
$GPRMC,201834.90,A,2732.09499,S,04837.78417,W,0.481,,300519,,*18
$GPRMC,201835.00,A,2732.09505,S,04837.78415,W,0.534,,300519,,*19
$GPRMC,201835.10,A,2732.09506,S,04837.78411,W,0.534,,300519,,*1F
$GPRMC,201835.20,A,2732.09506,S,04837.78409,W,0.600,,300519,,*11
$GPRMC,201835.30,A,2732.09505,S,04837.78410,W,0.680,,300519,,*13
$GPRMC,201835.40,A,2732.09506,S,04837.78411,W,0.772,,300519,,*1A
$GPRMC,201835.50,A,2732.09511,S,04837.78410,W,0.843,,300519,,*11
$GPRMC,201835.60,A,2732.09512,S,04837.78408,W,0.828,,300519,,*15
$GPRMC,201835.70,A,2732.09512,S,04837.78409,W,0.889,,300519,,*1E
$GPRMC,201835.80,A,2732.09513,S,04837.78409,W,0.910,,300519,,*11
$GPRMC,201835.90,A,2732.09512,S,04837.78407,W,0.807,,300519,,*18
$GPRMC,201836.00,A,2732.09514,S,04837.78406,W,0.802,,300519,,*10
$GPRMC,201836.10,A,2732.09516,S,04837.78406,W,0.765,,300519,,*1D
$GPRMC,201836.20,A,2732.09518,S,04837.78406,W,0.749,,300519,,*1E
$GPRMC,201836.30,A,2732.09520,S,04837.78407,W,0.751,,300519,,*1C
$GPRMC,201836.40,A,2732.09520,S,04837.78407,W,0.694,,300519,,*13
$GPRMC,201836.50,A,2732.09519,S,04837.78407,W,0.652,,300519,,*12
$GPRMC,201836.60,A,2732.09518,S,04837.78407,W,0.596,,300519,,*1B
$GPRMC,201836.70,A,2732.09520,S,04837.78406,W,0.562,,300519,,*1B
$GPRMC,201836.80,A,2732.09521,S,04837.78406,W,0.498,,300519,,*11
$GPRMC,201836.90,A,2732.09519,S,04837.78404,W,0.411,,300519,,*18
$GPRMC,201837.00,A,2732.09519,S,04837.78404,W,0.397,,300519,,*19
$GPRMC,201837.10,A,2732.09520,S,04837.78404,W,0.404,,300519,,*1F
$GPRMC,201837.20,A,2732.09520,S,04837.78403,W,0.368,,300519,,*16
$GPRMC,201837.30,A,2732.09523,S,04837.78401,W,0.322,,300519,,*18
$GPRMC,201837.40,A,2732.09523,S,04837.78400,W,0.296,,300519,,*10
$GPRMC,201837.50,A,2732.09524,S,04837.78399,W,0.300,,300519,,*1F
$GPRMC,201837.60,A,2732.09524,S,04837.78398,W,0.298,,300519,,*1D
$GPRMC,201837.70,A,2732.09525,S,04837.78397,W,0.305,,300519,,*17
$GPRMC,201837.80,A,2732.09521,S,04837.78395,W,0.230,,300519,,*19
$GPRMC,201837.90,A,2732.09514,S,04837.78391,W,0.332,,300519,,*19
$GPRMC,201838.00,A,2732.09511,S,04837.78389,W,0.375,,300519,,*10
$GPRMC,201838.10,A,2732.09513,S,04837.78386,W,0.148,,300519,,*10
$GPRMC,201838.20,A,2732.09513,S,04837.78385,W,0.119,,300519,,*14
$GPRMC,201838.30,A,2732.09512,S,04837.78387,W,0.134,,300519,,*19
$GPRMC,201838.40,A,2732.09513,S,04837.78388,W,0.173,,300519,,*13
$GPRMC,201838.50,A,2732.09514,S,04837.78387,W,0.132,,300519,,*1F
$GPRMC,201838.60,A,2732.09517,S,04837.78385,W,0.152,,300519,,*1B
$GPRMC,201838.70,A,2732.09517,S,04837.78384,W,0.162,,300519,,*18
$GPRMC,201838.80,A,2732.09520,S,04837.78383,W,0.234,,300519,,*14
$GPRMC,201838.90,A,2732.09522,S,04837.78384,W,0.295,,300519,,*1B
$GPRMC,201839.00,A,2732.09526,S,04837.78383,W,0.333,,300519,,*1D
$GPRMC,201839.10,A,2732.09529,S,04837.78383,W,0.356,,300519,,*10
$GPRMC,201839.20,A,2732.09531,S,04837.78382,W,0.361,,300519,,*1F
$GPRMC,201839.30,A,2732.09532,S,04837.78382,W,0.380,,300519,,*12
$GPRMC,201839.40,A,2732.09533,S,04837.78383,W,0.389,,300519,,*1C
$GPRMC,201839.50,A,2732.09535,S,04837.78382,W,0.377,,300519,,*1B
$GPRMC,201839.60,A,2732.09536,S,04837.78382,W,0.366,,300519,,*1B
$GPRMC,201839.70,A,2732.09538,S,04837.78381,W,0.355,,300519,,*17
$GPRMC,201839.80,A,2732.09540,S,04837.78380,W,0.360,,300519,,*10
$GPRMC,201839.90,A,2732.09542,S,04837.78379,W,0.369,,300519,,*1C
$GPRMC,201840.00,A,2732.09542,S,04837.78379,W,0.365,,300519,,*17
$GPRMC,201840.10,A,2732.09543,S,04837.78379,W,0.375,,300519,,*16
$GPRMC,201840.20,A,2732.09544,S,04837.78380,W,0.380,,300519,,*1E
$GPRMC,201840.30,A,2732.09545,S,04837.78381,W,0.399,,300519,,*17
$GPRMC,201840.40,A,2732.09544,S,04837.78382,W,0.419,,300519,,*1D
$GPRMC,201840.50,A,2732.09540,S,04837.78383,W,0.432,,300519,,*10
$GPRMC,201840.60,A,2732.09537,S,04837.78383,W,0.402,,300519,,*10
$GPRMC,201840.70,A,2732.09539,S,04837.78384,W,0.399,,300519,,*1D
$GPRMC,201840.80,A,2732.09543,S,04837.78383,W,0.347,,300519,,*1B
$GPRMC,201840.90,A,2732.09548,S,04837.78382,W,0.369,,300519,,*1C
$GPRMC,201841.00,A,2732.09549,S,04837.78376,W,0.453,,300519,,*10
$GPRMC,201841.10,A,2732.09547,S,04837.78375,W,0.334,,300519,,*1A
$GPRMC,201841.20,A,2732.09545,S,04837.78377,W,0.255,,300519,,*1F
$GPRMC,201841.30,A,2732.09544,S,04837.78378,W,0.223,,300519,,*11
$GPRMC,201841.40,A,2732.09544,S,04837.78382,W,0.222,,300519,,*12
$GPRMC,201841.50,A,2732.09539,S,04837.78381,W,0.095,,300519,,*14
$GPRMC,201841.60,A,2732.09538,S,04837.78385,W,0.169,,300519,,*10
$GPRMC,201841.70,A,2732.09540,S,04837.78387,W,0.076,,300519,,*13
$GPRMC,201841.80,A,2732.09542,S,04837.78389,W,0.025,,300519,,*16
$GPRMC,201841.90,A,2732.09542,S,04837.78390,W,0.164,,300519,,*1B
$GPRMC,201842.00,A,2732.09543,S,04837.78392,W,0.155,,300519,,*10
$GPRMC,201842.10,A,2732.09543,S,04837.78393,W,0.176,,300519,,*11
$GPRMC,201842.20,A,2732.09542,S,04837.78393,W,0.334,,300519,,*17
$GPRMC,201842.30,A,2732.09544,S,04837.78393,W,0.234,,300519,,*11
$GPRMC,201842.40,A,2732.09546,S,04837.78393,W,0.211,,300519,,*13
$GPRMC,201842.50,A,2732.09551,S,04837.78397,W,0.216,,300519,,*17
$GPRMC,201842.60,A,2732.09556,S,04837.78398,W,0.254,,300519,,*1A
$GPRMC,201842.70,A,2732.09554,S,04837.78399,W,0.133,,300519,,*1A
$GPRMC,201842.80,A,2732.09553,S,04837.78398,W,0.205,,300519,,*15
$GPRMC,201842.90,A,2732.09558,S,04837.78399,W,0.081,,300519,,*10
$GPRMC,201843.00,A,2732.09561,S,04837.78402,W,0.056,,300519,,*1D
$GPRMC,201843.10,A,2732.09556,S,04837.78400,W,0.046,,300519,,*1B
$GPRMC,201843.20,A,2732.09553,S,04837.78401,W,0.123,,300519,,*1E
$GPRMC,201843.30,A,2732.09546,S,04837.78399,W,0.194,,300519,,*11
$GPRMC,201843.40,A,2732.09547,S,04837.78402,W,0.116,,300519,,*18
$GPRMC,201843.50,A,2732.09551,S,04837.78405,W,0.089,,300519,,*1E
$GPRMC,201843.60,A,2732.09550,S,04837.78406,W,0.085,,300519,,*13
$GPRMC,201843.70,A,2732.09546,S,04837.78404,W,0.124,,300519,,*1D
$GPRMC,201843.80,A,2732.09546,S,04837.78406,W,0.088,,300519,,*17
$GPRMC,201843.90,A,2732.09549,S,04837.78406,W,0.174,,300519,,*1B
$GPRMC,201844.00,A,2732.09554,S,04837.78403,W,0.358,,300519,,*10
$GPRMC,201844.10,A,2732.09558,S,04837.78402,W,0.352,,300519,,*16
$GPRMC,201844.20,A,2732.09560,S,04837.78401,W,0.380,,300519,,*12
$GPRMC,201844.30,A,2732.09561,S,04837.78401,W,0.333,,300519,,*1A
$GPRMC,201844.40,A,2732.09560,S,04837.78401,W,0.180,,300519,,*16
$GPRMC,201844.50,A,2732.09559,S,04837.78399,W,0.141,,300519,,*16
$GPRMC,201844.60,A,2732.09562,S,04837.78399,W,0.114,,300519,,*1D
$GPRMC,201844.70,A,2732.09561,S,04837.78397,W,0.146,,300519,,*16
$GPRMC,201844.80,A,2732.09562,S,04837.78400,W,0.119,,300519,,*19
$GPRMC,201844.90,A,2732.09564,S,04837.78400,W,0.142,,300519,,*10
$GPRMC,201845.00,A,2732.09564,S,04837.78397,W,0.224,,300519,,*12
$GPRMC,201845.10,A,2732.09563,S,04837.78400,W,0.205,,300519,,*1E
$GPRMC,201845.20,A,2732.09564,S,04837.78400,W,0.298,,300519,,*1E
$GPRMC,201845.30,A,2732.09562,S,04837.78396,W,0.439,,300519,,*1C
$GPRMC,201845.40,A,2732.09562,S,04837.78396,W,0.497,,300519,,*1F
$GPRMC,201845.50,A,2732.09563,S,04837.78397,W,0.500,,300519,,*11
$GPRMC,201845.60,A,2732.09570,S,04837.78398,W,0.347,,300519,,*1A
$GPRMC,201845.70,A,2732.09571,S,04837.78399,W,0.379,,300519,,*16
$GPRMC,201845.80,A,2732.09569,S,04837.78398,W,0.348,,300519,,*13
$GPRMC,201845.90,A,2732.09570,S,04837.78398,W,0.338,,300519,,*1D
$GPRMC,201846.00,A,2732.09571,S,04837.78397,W,0.320,,300519,,*10
$GPRMC,201846.10,A,2732.09572,S,04837.78395,W,0.393,,300519,,*18
$GPRMC,201846.20,A,2732.09573,S,04837.78391,W,0.468,,300519,,*1D
$GPRMC,201846.30,A,2732.09573,S,04837.78387,W,0.543,,300519,,*13
$GPRMC,201846.40,A,2732.09574,S,04837.78386,W,0.537,,300519,,*11
$GPRMC,201846.50,A,2732.09578,S,04837.78385,W,0.526,,300519,,*1F
$GPRMC,201846.60,A,2732.09578,S,04837.78384,W,0.482,,300519,,*12
$GPRMC,201846.70,A,2732.09580,S,04837.78384,W,0.414,,300519,,*1B
$GPRMC,201846.80,A,2732.09581,S,04837.78383,W,0.346,,300519,,*12
$GPRMC,201846.90,A,2732.09578,S,04837.78380,W,0.416,,300519,,*14
$GPRMC,201847.00,A,2732.09575,S,04837.78380,W,0.345,,300519,,*10
$GPRMC,201847.10,A,2732.09574,S,04837.78382,W,0.198,,300519,,*10
$GPRMC,201847.20,A,2732.09580,S,04837.78387,W,0.169,,300519,,*13
$GPRMC,201847.30,A,2732.09585,S,04837.78387,W,0.350,,300519,,*1F
$GPRMC,201847.40,A,2732.09591,S,04837.78389,W,0.463,,300519,,*14
$GPRMC,201847.50,A,2732.09592,S,04837.78391,W,0.393,,300519,,*17
$GPRMC,201847.60,A,2732.09591,S,04837.78392,W,0.384,,300519,,*12
$GPRMC,201847.70,A,2732.09592,S,04837.78390,W,0.353,,300519,,*18
$GPRMC,201847.80,A,2732.09595,S,04837.78392,W,0.399,,300519,,*14
$GPRMC,201847.90,A,2732.09597,S,04837.78395,W,0.454,,300519,,*16
$GPRMC,201848.00,A,2732.09595,S,04837.78395,W,0.427,,300519,,*16
$GPRMC,201848.10,A,2732.09592,S,04837.78394,W,0.360,,300519,,*15
$GPRMC,201848.20,A,2732.09593,S,04837.78394,W,0.336,,300519,,*14
$GPRMC,201848.30,A,2732.09593,S,04837.78395,W,0.290,,300519,,*19
$GPRMC,201848.40,A,2732.09592,S,04837.78393,W,0.148,,300519,,*1F
$GPRMC,201848.50,A,2732.09598,S,04837.78398,W,0.280,,300519,,*18
$GPRMC,201848.60,A,2732.09602,S,04837.78403,W,0.378,,300519,,*18
$GPRMC,201848.70,A,2732.09606,S,04837.78409,W,0.503,,300519,,*1D
$GPRMC,201848.80,A,2732.09609,S,04837.78415,W,0.597,,300519,,*1D
$GPRMC,201848.90,A,2732.09608,S,04837.78414,W,0.477,,300519,,*13
$GPRMC,201849.00,A,2732.09606,S,04837.78414,W,0.382,,300519,,*18
$GPRMC,201849.10,A,2732.09603,S,04837.78413,W,0.397,,300519,,*1F
$GPRMC,201849.20,A,2732.09596,S,04837.78408,W,0.394,,300519,,*1A
$GPRMC,201849.30,A,2732.09593,S,04837.78406,W,0.467,,300519,,*1B
$GPRMC,201849.40,A,2732.09593,S,04837.78405,W,0.580,,300519,,*17
$GPRMC,201849.50,A,2732.09595,S,04837.78404,W,0.527,,300519,,*1C
$GPRMC,201849.60,A,2732.09600,S,04837.78411,W,0.544,,300519,,*11
$GPRMC,201849.70,A,2732.09605,S,04837.78419,W,0.524,,300519,,*1B
$GPRMC,201849.80,A,2732.09602,S,04837.78417,W,0.680,,300519,,*10
$GPRMC,201849.90,A,2732.09600,S,04837.78415,W,0.754,,300519,,*19
$GPRMC,201850.00,A,2732.09596,S,04837.78409,W,0.890,,300519,,*1E
$GPRMC,201850.10,A,2732.09592,S,04837.78403,W,1.016,,300519,,*16
$GPRMC,201850.20,A,2732.09588,S,04837.78400,W,1.161,,300519,,*1C
$GPRMC,201850.30,A,2732.09587,S,04837.78395,W,1.226,105.91,300519,,*0B
$GPRMC,201850.40,A,2732.09586,S,04837.78395,W,1.230,68.83,300519,,*33
$GPRMC,201850.50,A,2732.09583,S,04837.78395,W,1.243,48.98,300519,,*3B
$GPRMC,201850.60,A,2732.09580,S,04837.78392,W,1.253,39.07,300519,,*3D
$GPRMC,201850.70,A,2732.09577,S,04837.78388,W,1.362,35.47,300519,,*34
$GPRMC,201850.80,A,2732.09571,S,04837.78378,W,1.517,39.03,300519,,*3A
$GPRMC,201850.90,A,2732.09564,S,04837.78368,W,1.653,42.50,300519,,*37
$GPRMC,201851.00,A,2732.09560,S,04837.78365,W,1.689,42.58,300519,,*39
$GPRMC,201851.10,A,2732.09559,S,04837.78367,W,1.527,41.43,300519,,*3E
$GPRMC,201851.20,A,2732.09559,S,04837.78367,W,1.428,41.52,300519,,*33
$GPRMC,201851.30,A,2732.09559,S,04837.78366,W,1.388,41.59,300519,,*35
$GPRMC,201851.40,A,2732.09554,S,04837.78357,W,1.456,45.91,300519,,*39
$GPRMC,201851.50,A,2732.09545,S,04837.78343,W,1.743,48.97,300519,,*31
$GPRMC,201851.60,A,2732.09543,S,04837.78338,W,1.771,51.19,300519,,*37
$GPRMC,201851.70,A,2732.09541,S,04837.78333,W,1.798,52.17,300519,,*35
$GPRMC,201851.80,A,2732.09543,S,04837.78336,W,1.592,51.53,300519,,*36
$GPRMC,201851.90,A,2732.09545,S,04837.78343,W,1.328,50.35,300519,,*35
$GPRMC,201852.00,A,2732.09541,S,04837.78342,W,1.344,46.28,300519,,*3B
$GPRMC,201852.10,A,2732.09539,S,04837.78342,W,1.312,43.64,300519,,*3B
$GPRMC,201852.20,A,2732.09540,S,04837.78343,W,1.141,43.91,300519,,*39
$GPRMC,201852.30,A,2732.09535,S,04837.78333,W,1.256,48.91,300519,,*33
$GPRMC,201852.40,A,2732.09528,S,04837.78323,W,1.378,53.28,300519,,*3C
$GPRMC,201852.50,A,2732.09520,S,04837.78314,W,1.494,56.03,300519,,*38
$GPRMC,201852.60,A,2732.09517,S,04837.78313,W,1.479,55.32,300519,,*3A
$GPRMC,201852.70,A,2732.09518,S,04837.78316,W,1.297,56.04,300519,,*31
$GPRMC,201852.80,A,2732.09525,S,04837.78324,W,1.004,,300519,,*10
$GPRMC,201852.90,A,2732.09522,S,04837.78321,W,0.974,,300519,,*1C
$GPRMC,201853.00,A,2732.09524,S,04837.78320,W,0.911,,300519,,*10
$GPRMC,201853.10,A,2732.09530,S,04837.78325,W,0.714,,300519,,*1A
$GPRMC,201853.20,A,2732.09532,S,04837.78326,W,0.652,,300519,,*1B
$GPRMC,201853.30,A,2732.09532,S,04837.78324,W,0.639,,300519,,*15
$GPRMC,201853.40,A,2732.09536,S,04837.78327,W,0.512,,300519,,*1F
$GPRMC,201853.50,A,2732.09541,S,04837.78332,W,0.376,,300519,,*1E
$GPRMC,201853.60,A,2732.09542,S,04837.78332,W,0.346,,300519,,*1D
$GPRMC,201853.70,A,2732.09532,S,04837.78321,W,0.617,,300519,,*18
$GPRMC,201853.80,A,2732.09528,S,04837.78313,W,0.796,,300519,,*15
$GPRMC,201853.90,A,2732.09520,S,04837.78307,W,0.946,,300519,,*1A
$GPRMC,201854.00,A,2732.09512,S,04837.78301,W,1.102,55.96,300519,,*3B
$GPRMC,201854.10,A,2732.09511,S,04837.78302,W,1.065,51.94,300519,,*3C
$GPRMC,201854.20,A,2732.09513,S,04837.78305,W,0.970,,300519,,*11
$GPRMC,201854.30,A,2732.09513,S,04837.78305,W,0.949,,300519,,*1A
$GPRMC,201854.40,A,2732.09514,S,04837.78302,W,1.050,,300519,,*1D
$GPRMC,201854.50,A,2732.09510,S,04837.78294,W,1.224,46.68,300519,,*35
$GPRMC,201854.60,A,2732.09516,S,04837.78297,W,1.134,43.61,300519,,*3D
$GPRMC,201854.70,A,2732.09516,S,04837.78298,W,1.060,,300519,,*1D
$GPRMC,201854.80,A,2732.09512,S,04837.78296,W,1.137,,300519,,*1B
$GPRMC,201854.90,A,2732.09509,S,04837.78293,W,1.161,,300519,,*16
$GPRMC,201855.00,A,2732.09504,S,04837.78287,W,1.249,39.11,300519,,*3B
$GPRMC,201855.10,A,2732.09503,S,04837.78283,W,1.238,40.63,300519,,*34
$GPRMC,201855.20,A,2732.09509,S,04837.78289,W,1.020,,300519,,*13
$GPRMC,201855.30,A,2732.09511,S,04837.78291,W,0.825,,300519,,*1E
$GPRMC,201855.40,A,2732.09514,S,04837.78294,W,0.625,,300519,,*17
$GPRMC,201855.50,A,2732.09514,S,04837.78297,W,0.448,,300519,,*1C
$GPRMC,201855.60,A,2732.09516,S,04837.78297,W,0.317,,300519,,*10
$GPRMC,201855.70,A,2732.09522,S,04837.78300,W,0.303,,300519,,*1C
$GPRMC,201855.80,A,2732.09526,S,04837.78304,W,0.349,,300519,,*1D
$GPRMC,201855.90,A,2732.09524,S,04837.78305,W,0.362,,300519,,*16
$GPRMC,201856.00,A,2732.09513,S,04837.78295,W,0.245,,300519,,*14
$GPRMC,201856.10,A,2732.09501,S,04837.78281,W,0.498,,300519,,*15
$GPRMC,201856.20,A,2732.09502,S,04837.78281,W,0.537,,300519,,*11
$GPRMC,201856.30,A,2732.09502,S,04837.78281,W,0.516,,300519,,*13
$GPRMC,201856.40,A,2732.09502,S,04837.78277,W,0.640,,300519,,*1D
$GPRMC,201856.50,A,2732.09506,S,04837.78279,W,0.649,,300519,,*1F
$GPRMC,201856.60,A,2732.09501,S,04837.78276,W,0.613,,300519,,*1B
$GPRMC,201856.70,A,2732.09494,S,04837.78269,W,0.634,,300519,,*1C
$GPRMC,201856.80,A,2732.09490,S,04837.78270,W,0.637,,300519,,*1C
$GPRMC,201856.90,A,2732.09480,S,04837.78263,W,0.506,,300519,,*1F
$GPRMC,201857.00,A,2732.09481,S,04837.78266,W,0.479,,300519,,*1A
$GPRMC,201857.10,A,2732.09493,S,04837.78276,W,0.716,,300519,,*13
$GPRMC,201857.20,A,2732.09495,S,04837.78276,W,0.983,,300519,,*14
$GPRMC,201857.30,A,2732.09488,S,04837.78265,W,0.969,,300519,,*1F
$GPRMC,201857.40,A,2732.09487,S,04837.78265,W,1.165,,300519,,*12
$GPRMC,201857.50,A,2732.09486,S,04837.78265,W,1.190,,300519,,*18
$GPRMC,201857.60,A,2732.09484,S,04837.78258,W,1.285,,300519,,*10
$GPRMC,201857.70,A,2732.09478,S,04837.78246,W,1.283,,300519,,*1B
$GPRMC,201857.80,A,2732.09469,S,04837.78231,W,1.306,,300519,,*18
$GPRMC,201857.90,A,2732.09468,S,04837.78219,W,1.495,,300519,,*1F
$GPRMC,201858.00,A,2732.09465,S,04837.78207,W,1.630,,300519,,*16
$GPRMC,201858.10,A,2732.09460,S,04837.78198,W,1.627,,300519,,*11
$GPRMC,201858.20,A,2732.09456,S,04837.78191,W,1.566,,300519,,*18
$GPRMC,201858.30,A,2732.09451,S,04837.78179,W,1.736,,300519,,*1F
$GPRMC,201858.40,A,2732.09441,S,04837.78167,W,1.546,,300519,,*13
$GPRMC,201858.50,A,2732.09435,S,04837.78162,W,1.354,,300519,,*11
$GPRMC,201858.60,A,2732.09436,S,04837.78156,W,1.402,,300519,,*12
$GPRMC,201858.70,A,2732.09430,S,04837.78145,W,1.375,,300519,,*10
$GPRMC,201858.80,A,2732.09421,S,04837.78139,W,1.246,,300519,,*15
$GPRMC,201858.90,A,2732.09417,S,04837.78137,W,1.034,,300519,,*18
$GPRMC,201859.00,A,2732.09399,S,04837.78123,W,0.919,,300519,,*13
$GPRMC,201859.10,A,2732.09387,S,04837.78112,W,0.974,,300519,,*14
$GPRMC,201859.20,A,2732.09383,S,04837.78112,W,0.816,,300519,,*16
$GPRMC,201859.30,A,2732.09394,S,04837.78121,W,0.597,,300519,,*15
$GPRMC,201859.40,A,2732.09395,S,04837.78120,W,0.638,,300519,,*14
$GPRMC,201859.50,A,2732.09385,S,04837.78108,W,0.795,,300519,,*18
$GPRMC,201859.60,A,2732.09382,S,04837.78104,W,0.878,,300519,,*1C
$GPRMC,201859.70,A,2732.09375,S,04837.78093,W,1.000,,300519,,*1C
$GPRMC,201859.80,A,2732.09369,S,04837.78080,W,1.138,,300519,,*16
$GPRMC,201859.90,A,2732.09360,S,04837.78068,W,1.204,,300519,,*14
$GPRMC,201900.00,A,2732.09351,S,04837.78059,W,1.137,,300519,,*13
$GPRMC,201900.10,A,2732.09346,S,04837.78051,W,1.164,,300519,,*1A
$GPRMC,201900.20,A,2732.09339,S,04837.78040,W,1.262,,300519,,*14
$GPRMC,201900.30,A,2732.09333,S,04837.78032,W,1.237,,300519,,*1A
$GPRMC,201900.40,A,2732.09331,S,04837.78029,W,1.186,,300519,,*1C
$GPRMC,201900.50,A,2732.09324,S,04837.78023,W,1.108,,300519,,*15
$GPRMC,201900.60,A,2732.09317,S,04837.78016,W,1.101,,300519,,*19
$GPRMC,201900.70,A,2732.09318,S,04837.78015,W,1.000,,300519,,*14
$GPRMC,201900.80,A,2732.09320,S,04837.78013,W,0.949,,300519,,*13
$GPRMC,201900.90,A,2732.09312,S,04837.78002,W,0.990,,300519,,*17
$GPRMC,201901.00,A,2732.09304,S,04837.77991,W,1.103,,300519,,*17
$GPRMC,201901.10,A,2732.09300,S,04837.77988,W,0.998,,300519,,*11
$GPRMC,201901.20,A,2732.09287,S,04837.77974,W,1.216,,300519,,*13
$GPRMC,201901.30,A,2732.09273,S,04837.77961,W,1.397,,300519,,*15
$GPRMC,201901.40,A,2732.09268,S,04837.77952,W,1.482,,300519,,*1B
$GPRMC,201901.50,A,2732.09275,S,04837.77950,W,1.486,,300519,,*10
$GPRMC,201901.60,A,2732.09279,S,04837.77946,W,1.526,,300519,,*13
$GPRMC,201901.70,A,2732.09276,S,04837.77938,W,1.646,,300519,,*11
$GPRMC,201901.80,A,2732.09267,S,04837.77922,W,1.860,,300519,,*1F
$GPRMC,201901.90,A,2732.09270,S,04837.77917,W,1.879,,300519,,*16
$GPRMC,201902.00,A,2732.09268,S,04837.77914,W,1.671,,300519,,*10
$GPRMC,201902.10,A,2732.09264,S,04837.77913,W,1.421,,300519,,*1D
$GPRMC,201902.20,A,2732.09256,S,04837.77903,W,1.459,,300519,,*11
$GPRMC,201902.30,A,2732.09247,S,04837.77893,W,1.495,,300519,,*18
$GPRMC,201902.40,A,2732.09242,S,04837.77887,W,1.498,,300519,,*12
$GPRMC,201902.50,A,2732.09223,S,04837.77877,W,1.542,50.81,300519,,*3F
$GPRMC,201902.60,A,2732.09208,S,04837.77863,W,1.752,54.93,300519,,*34
$GPRMC,201902.70,A,2732.09198,S,04837.77845,W,2.032,59.40,300519,,*3A
$GPRMC,201902.80,A,2732.09183,S,04837.77820,W,2.453,63.54,300519,,*33
$GPRMC,201902.90,A,2732.09178,S,04837.77808,W,2.530,65.55,300519,,*3F
$GPRMC,201903.00,A,2732.09181,S,04837.77808,W,2.282,66.17,300519,,*3A
$GPRMC,201903.10,A,2732.09182,S,04837.77809,W,2.038,64.68,300519,,*30
$GPRMC,201903.20,A,2732.09195,S,04837.77829,W,1.400,60.84,300519,,*3D
$GPRMC,201903.30,A,2732.09195,S,04837.77835,W,1.191,,300519,,*18
$GPRMC,201903.40,A,2732.09202,S,04837.77844,W,0.912,,300519,,*16
$GPRMC,201903.50,A,2732.09209,S,04837.77853,W,0.640,,300519,,*12
$GPRMC,201903.60,A,2732.09210,S,04837.77855,W,0.533,,300519,,*18
$GPRMC,201903.70,A,2732.09201,S,04837.77844,W,0.647,,300519,,*19
$GPRMC,201903.80,A,2732.09185,S,04837.77830,W,0.903,,300519,,*15
$GPRMC,201903.90,A,2732.09170,S,04837.77816,W,1.125,,300519,,*17
$GPRMC,201904.00,A,2732.09166,S,04837.77807,W,1.175,,300519,,*1B
$GPRMC,201904.10,A,2732.09171,S,04837.77805,W,1.126,,300519,,*18
$GPRMC,201904.20,A,2732.09173,S,04837.77802,W,1.115,,300519,,*1E
$GPRMC,201904.30,A,2732.09169,S,04837.77794,W,1.171,,300519,,*16
$GPRMC,201904.40,A,2732.09165,S,04837.77787,W,1.194,,300519,,*14
$GPRMC,201904.50,A,2732.09170,S,04837.77788,W,1.068,,300519,,*1C
$GPRMC,201904.60,A,2732.09173,S,04837.77787,W,0.978,,300519,,*1A
$GPRMC,201904.70,A,2732.09172,S,04837.77782,W,0.946,,300519,,*12
$GPRMC,201904.80,A,2732.09178,S,04837.77778,W,1.020,,300519,,*1A
$GPRMC,201904.90,A,2732.09174,S,04837.77768,W,1.090,,300519,,*1D
$GPRMC,201905.00,A,2732.09167,S,04837.77756,W,1.253,,300519,,*17
$GPRMC,201905.10,A,2732.09161,S,04837.77745,W,1.362,,300519,,*11
$GPRMC,201905.20,A,2732.09155,S,04837.77739,W,1.282,,300519,,*11
$GPRMC,201905.30,A,2732.09147,S,04837.77732,W,1.187,,300519,,*1E
$GPRMC,201905.40,A,2732.09142,S,04837.77725,W,1.240,,300519,,*12
$GPRMC,201905.50,A,2732.09133,S,04837.77716,W,1.241,,300519,,*14
$GPRMC,201905.60,A,2732.09115,S,04837.77701,W,1.340,,300519,,*15
$GPRMC,201905.70,A,2732.09105,S,04837.77690,W,1.437,61.35,300519,,*34
$GPRMC,201905.80,A,2732.09105,S,04837.77684,W,1.409,,300519,,*1C
$GPRMC,201905.90,A,2732.09106,S,04837.77683,W,1.278,,300519,,*19
$GPRMC,201906.00,A,2732.09107,S,04837.77680,W,1.211,,300519,,*1E
$GPRMC,201906.10,A,2732.09109,S,04837.77677,W,1.197,,300519,,*14
$GPRMC,201906.20,A,2732.09107,S,04837.77671,W,1.189,,300519,,*10
$GPRMC,201906.30,A,2732.09103,S,04837.77666,W,1.137,,300519,,*16
$GPRMC,201906.40,A,2732.09103,S,04837.77667,W,0.971,,300519,,*1B
$GPRMC,201906.50,A,2732.09102,S,04837.77671,W,0.778,,300519,,*1B
$GPRMC,201906.60,A,2732.09107,S,04837.77679,W,0.549,,300519,,*15
$GPRMC,201906.70,A,2732.09107,S,04837.77682,W,0.453,,300519,,*1A
$GPRMC,201906.80,A,2732.09104,S,04837.77679,W,0.487,,300519,,*1B
$GPRMC,201906.90,A,2732.09103,S,04837.77678,W,0.444,,300519,,*13
$GPRMC,201907.00,A,2732.09100,S,04837.77678,W,0.428,,300519,,*12
$GPRMC,201907.10,A,2732.09102,S,04837.77681,W,0.282,,300519,,*11
$GPRMC,201907.20,A,2732.09111,S,04837.77689,W,0.122,,300519,,*11
$GPRMC,201907.30,A,2732.09114,S,04837.77694,W,0.292,,300519,,*11
$GPRMC,201907.40,A,2732.09116,S,04837.77700,W,0.440,,300519,,*11
$GPRMC,201907.50,A,2732.09110,S,04837.77697,W,0.474,,300519,,*1E
$GPRMC,201907.60,A,2732.09104,S,04837.77690,W,0.405,,300519,,*19
$GPRMC,201907.70,A,2732.09098,S,04837.77685,W,0.568,,300519,,*12
$GPRMC,201907.80,A,2732.09094,S,04837.77681,W,0.595,,300519,,*17
$GPRMC,201907.90,A,2732.09093,S,04837.77680,W,0.520,,300519,,*1E
$GPRMC,201908.00,A,2732.09091,S,04837.77681,W,0.605,,300519,,*1F
$GPRMC,201908.10,A,2732.09088,S,04837.77682,W,0.626,,300519,,*14
$GPRMC,201908.20,A,2732.09089,S,04837.77681,W,0.421,,300519,,*10
$GPRMC,201908.30,A,2732.09093,S,04837.77683,W,0.328,,300519,,*16
$GPRMC,201908.40,A,2732.09102,S,04837.77693,W,0.375,,300519,,*11
$GPRMC,201908.50,A,2732.09107,S,04837.77698,W,0.312,,300519,,*1F
$GPRMC,201908.60,A,2732.09109,S,04837.77699,W,0.314,,300519,,*15
$GPRMC,201908.70,A,2732.09111,S,04837.77702,W,0.363,,300519,,*1E
$GPRMC,201908.80,A,2732.09104,S,04837.77693,W,0.147,,300519,,*18
$GPRMC,201908.90,A,2732.09093,S,04837.77679,W,0.211,,300519,,*12
$GPRMC,201909.00,A,2732.09089,S,04837.77673,W,0.356,,300519,,*19
$GPRMC,201909.10,A,2732.09084,S,04837.77673,W,0.354,,300519,,*17
$GPRMC,201909.20,A,2732.09088,S,04837.77678,W,0.278,,300519,,*1C
$GPRMC,201909.30,A,2732.09098,S,04837.77690,W,0.300,,300519,,*14
$GPRMC,201909.40,A,2732.09106,S,04837.77693,W,0.249,,300519,,*1A
$GPRMC,201909.50,A,2732.09108,S,04837.77688,W,0.090,,300519,,*19
$GPRMC,201909.60,A,2732.09111,S,04837.77686,W,0.172,,300519,,*11
$GPRMC,201909.70,A,2732.09113,S,04837.77687,W,0.176,,300519,,*17
$GPRMC,201909.80,A,2732.09109,S,04837.77686,W,0.153,,300519,,*15
$GPRMC,201909.90,A,2732.09107,S,04837.77678,W,0.289,,300519,,*1F
$GPRMC,201910.00,A,2732.09106,S,04837.77674,W,0.279,,300519,,*1C
$GPRMC,201910.10,A,2732.09105,S,04837.77673,W,0.310,,300519,,*17
$GPRMC,201910.20,A,2732.09095,S,04837.77661,W,0.364,,300519,,*1C
$GPRMC,201910.30,A,2732.09089,S,04837.77652,W,0.445,,300519,,*14
$GPRMC,201910.40,A,2732.09091,S,04837.77651,W,0.485,,300519,,*15
$GPRMC,201910.50,A,2732.09094,S,04837.77651,W,0.498,,300519,,*1D
$GPRMC,201910.60,A,2732.09102,S,04837.77656,W,0.380,,300519,,*19
$GPRMC,201910.70,A,2732.09104,S,04837.77655,W,0.271,,300519,,*12
$GPRMC,201910.80,A,2732.09100,S,04837.77651,W,0.201,,300519,,*1A
$GPRMC,201910.90,A,2732.09095,S,04837.77648,W,0.226,,300519,,*1B
$GPRMC,201911.00,A,2732.09095,S,04837.77648,W,0.145,,300519,,*15
$GPRMC,201911.10,A,2732.09102,S,04837.77655,W,0.103,,300519,,*15
$GPRMC,201911.20,A,2732.09112,S,04837.77662,W,0.171,,300519,,*16
$GPRMC,201911.30,A,2732.09115,S,04837.77663,W,0.197,,300519,,*19
$GPRMC,201911.40,A,2732.09112,S,04837.77664,W,0.364,,300519,,*10
$GPRMC,201911.50,A,2732.09110,S,04837.77664,W,0.399,,300519,,*11
$GPRMC,201911.60,A,2732.09099,S,04837.77653,W,0.524,,300519,,*16
$GPRMC,201911.70,A,2732.09101,S,04837.77656,W,0.563,,300519,,*11
$GPRMC,201911.80,A,2732.09103,S,04837.77661,W,0.716,,300519,,*18
$GPRMC,201911.90,A,2732.09109,S,04837.77667,W,0.685,,300519,,*1E
$GPRMC,201912.00,A,2732.09113,S,04837.77669,W,0.672,,300519,,*19
$GPRMC,201912.10,A,2732.09109,S,04837.77666,W,0.639,,300519,,*13
$GPRMC,201912.20,A,2732.09107,S,04837.77666,W,0.691,,300519,,*1C
$GPRMC,201912.30,A,2732.09110,S,04837.77667,W,0.643,,300519,,*15
$GPRMC,201912.40,A,2732.09105,S,04837.77664,W,0.648,,300519,,*1E
$GPRMC,201912.50,A,2732.09104,S,04837.77662,W,0.657,,300519,,*16
$GPRMC,201912.60,A,2732.09094,S,04837.77649,W,0.815,,300519,,*1C
$GPRMC,201912.70,A,2732.09085,S,04837.77638,W,1.032,,300519,,*17
$GPRMC,201912.80,A,2732.09089,S,04837.77638,W,0.928,,300519,,*17
$GPRMC,201912.90,A,2732.09092,S,04837.77638,W,0.882,,300519,,*1D
$GPRMC,201913.00,A,2732.09092,S,04837.77634,W,0.805,,300519,,*16
$GPRMC,201913.10,A,2732.09089,S,04837.77632,W,0.752,,300519,,*16
$GPRMC,201913.20,A,2732.09086,S,04837.77627,W,0.751,,300519,,*1D
$GPRMC,201913.30,A,2732.09083,S,04837.77621,W,0.848,,300519,,*18
$GPRMC,201913.40,A,2732.09083,S,04837.77617,W,0.888,,300519,,*16
$GPRMC,201913.50,A,2732.09091,S,04837.77621,W,0.758,,300519,,*13
$GPRMC,201913.60,A,2732.09095,S,04837.77626,W,0.518,,300519,,*15
$GPRMC,201913.70,A,2732.09097,S,04837.77629,W,0.409,,300519,,*18
$GPRMC,201913.80,A,2732.09102,S,04837.77634,W,0.510,,300519,,*1F
$GPRMC,201913.90,A,2732.09107,S,04837.77641,W,0.563,,300519,,*1D
$GPRMC,201914.00,A,2732.09103,S,04837.77642,W,0.472,,300519,,*15
$GPRMC,201914.10,A,2732.09091,S,04837.77629,W,0.407,,300519,,*11
$GPRMC,201914.20,A,2732.09089,S,04837.77625,W,0.462,,300519,,*14
$GPRMC,201914.30,A,2732.09082,S,04837.77620,W,0.376,,300519,,*19
$GPRMC,201914.40,A,2732.09071,S,04837.77606,W,0.593,,300519,,*1B
$GPRMC,201914.50,A,2732.09068,S,04837.77600,W,0.688,,300519,,*1D
$GPRMC,201914.60,A,2732.09067,S,04837.77603,W,0.484,,300519,,*1C
$GPRMC,201914.70,A,2732.09067,S,04837.77606,W,0.325,,300519,,*14
$GPRMC,201914.80,A,2732.09072,S,04837.77613,W,0.348,,300519,,*10
$GPRMC,201914.90,A,2732.09075,S,04837.77619,W,0.383,,300519,,*1B
$GPRMC,201915.00,A,2732.09075,S,04837.77621,W,0.297,,300519,,*1C
$GPRMC,201915.10,A,2732.09072,S,04837.77616,W,0.328,,300519,,*1B
$GPRMC,201915.20,A,2732.09064,S,04837.77610,W,0.305,,300519,,*16
$GPRMC,201915.30,A,2732.09060,S,04837.77605,W,0.407,,300519,,*12
$GPRMC,201915.40,A,2732.09067,S,04837.77604,W,0.553,,300519,,*13
$GPRMC,201915.50,A,2732.09074,S,04837.77605,W,0.565,,300519,,*14
$GPRMC,201915.60,A,2732.09079,S,04837.77602,W,0.692,,300519,,*16
$GPRMC,201915.70,A,2732.09074,S,04837.77596,W,0.695,,300519,,*13
$GPRMC,201915.80,A,2732.09071,S,04837.77596,W,0.543,,300519,,*11
$GPRMC,201915.90,A,2732.09072,S,04837.77603,W,0.282,,300519,,*16
$GPRMC,201916.00,A,2732.09080,S,04837.77614,W,0.392,,300519,,*17
$GPRMC,201916.10,A,2732.09083,S,04837.77620,W,0.453,,300519,,*18
$GPRMC,201916.20,A,2732.09089,S,04837.77628,W,0.643,,300519,,*1A
$GPRMC,201916.30,A,2732.09094,S,04837.77636,W,0.747,,300519,,*1D
$GPRMC,201916.40,A,2732.09092,S,04837.77637,W,0.715,,300519,,*1A
$GPRMC,201916.50,A,2732.09091,S,04837.77640,W,0.736,,300519,,*19
$GPRMC,201916.60,A,2732.09098,S,04837.77648,W,0.881,,300519,,*18
$GPRMC,201916.70,A,2732.09103,S,04837.77651,W,0.856,,300519,,*18
$GPRMC,201916.80,A,2732.09106,S,04837.77651,W,0.763,,300519,,*1B
$GPRMC,201916.90,A,2732.09109,S,04837.77654,W,0.806,,300519,,*1C
$GPRMC,201917.00,A,2732.09115,S,04837.77661,W,0.911,,300519,,*18
$GPRMC,201917.10,A,2732.09115,S,04837.77659,W,0.928,,300519,,*18
$GPRMC,201917.20,A,2732.09118,S,04837.77660,W,0.980,,300519,,*1E
$GPRMC,201917.30,A,2732.09122,S,04837.77664,W,0.987,,300519,,*15
$GPRMC,201917.40,A,2732.09117,S,04837.77664,W,0.929,,300519,,*10
$GPRMC,201917.50,A,2732.09115,S,04837.77667,W,0.967,,300519,,*1A
$GPRMC,201917.60,A,2732.09120,S,04837.77671,W,1.014,,300519,,*14
$GPRMC,201917.70,A,2732.09127,S,04837.77672,W,1.152,,300519,,*12
$GPRMC,201917.80,A,2732.09127,S,04837.77673,W,1.092,,300519,,*11
$GPRMC,201917.90,A,2732.09124,S,04837.77669,W,1.066,,300519,,*13
$GPRMC,201918.00,A,2732.09138,S,04837.77677,W,1.356,,300519,,*17
$GPRMC,201918.10,A,2732.09149,S,04837.77685,W,1.563,134.15,300519,,*01
$GPRMC,201918.20,A,2732.09150,S,04837.77684,W,1.532,162.06,300519,,*0E
$GPRMC,201918.30,A,2732.09148,S,04837.77683,W,1.423,,300519,,*1D
$GPRMC,201918.40,A,2732.09152,S,04837.77690,W,1.512,184.53,300519,,*05
$GPRMC,201918.50,A,2732.09158,S,04837.77693,W,1.665,193.07,300519,,*09
$GPRMC,201918.60,A,2732.09158,S,04837.77694,W,1.575,197.98,300519,,*0D
$GPRMC,201918.70,A,2732.09154,S,04837.77692,W,1.487,200.11,300519,,*06
$GPRMC,201918.80,A,2732.09158,S,04837.77694,W,1.476,200.38,300519,,*06
$GPRMC,201918.90,A,2732.09163,S,04837.77693,W,1.545,197.43,300519,,*08
$GPRMC,201919.00,A,2732.09159,S,04837.77688,W,1.427,,300519,,*10
$GPRMC,201919.10,A,2732.09153,S,04837.77682,W,1.206,,300519,,*14
$GPRMC,201919.20,A,2732.09154,S,04837.77676,W,1.231,,300519,,*1F
$GPRMC,201919.30,A,2732.09161,S,04837.77679,W,1.269,,300519,,*1A
$GPRMC,201919.40,A,2732.09170,S,04837.77683,W,1.299,,300519,,*17
$GPRMC,201919.50,A,2732.09177,S,04837.77686,W,1.335,,300519,,*13
$GPRMC,201919.60,A,2732.09193,S,04837.77694,W,1.662,,300519,,*1E
$GPRMC,201919.70,A,2732.09200,S,04837.77702,W,1.596,,300519,,*10
$GPRMC,201919.80,A,2732.09196,S,04837.77705,W,1.426,,300519,,*1E
$GPRMC,201919.90,A,2732.09188,S,04837.77703,W,1.201,,300519,,*15
$GPRMC,201920.00,A,2732.09188,S,04837.77704,W,1.078,,300519,,*1D
$GPRMC,201920.10,A,2732.09189,S,04837.77698,W,1.044,,300519,,*16
$GPRMC,201920.20,A,2732.09188,S,04837.77690,W,0.957,,300519,,*16
$GPRMC,201920.30,A,2732.09190,S,04837.77685,W,0.909,,300519,,*11
$GPRMC,201920.40,A,2732.09196,S,04837.77688,W,0.946,,300519,,*16
$GPRMC,201920.50,A,2732.09203,S,04837.77699,W,0.883,,300519,,*10
$GPRMC,201920.60,A,2732.09207,S,04837.77707,W,0.868,,300519,,*14
$GPRMC,201920.70,A,2732.09211,S,04837.77713,W,0.874,,300519,,*1A
$GPRMC,201920.80,A,2732.09216,S,04837.77717,W,0.874,,300519,,*16
$GPRMC,201920.90,A,2732.09218,S,04837.77722,W,0.868,,300519,,*12
$GPRMC,201921.00,A,2732.09221,S,04837.77726,W,0.842,,300519,,*1C
$GPRMC,201921.10,A,2732.09226,S,04837.77728,W,0.725,,300519,,*1A
$GPRMC,201921.20,A,2732.09240,S,04837.77742,W,0.941,,300519,,*19
$GPRMC,201921.30,A,2732.09246,S,04837.77748,W,1.025,,300519,,*1E
$GPRMC,201921.40,A,2732.09251,S,04837.77754,W,1.020,,300519,,*17
$GPRMC,201921.50,A,2732.09253,S,04837.77756,W,0.963,,300519,,*19
$GPRMC,201921.60,A,2732.09250,S,04837.77753,W,0.811,,300519,,*18
$GPRMC,201921.70,A,2732.09247,S,04837.77751,W,0.720,,300519,,*10
$GPRMC,201921.80,A,2732.09245,S,04837.77746,W,0.491,,300519,,*12
$GPRMC,201921.90,A,2732.09255,S,04837.77750,W,0.655,,300519,,*1F
$GPRMC,201922.00,A,2732.09270,S,04837.77762,W,0.893,,300519,,*17
$GPRMC,201922.10,A,2732.09283,S,04837.77775,W,1.107,,300519,,*19
$GPRMC,201922.20,A,2732.09292,S,04837.77784,W,1.237,206.48,300519,,*02
$GPRMC,201922.30,A,2732.09298,S,04837.77788,W,1.282,208.78,300519,,*06
$GPRMC,201922.40,A,2732.09298,S,04837.77786,W,1.146,,300519,,*1F
$GPRMC,201922.50,A,2732.09300,S,04837.77787,W,1.057,,300519,,*1E
$GPRMC,201922.60,A,2732.09302,S,04837.77788,W,1.001,,300519,,*13
$GPRMC,201922.70,A,2732.09308,S,04837.77790,W,0.965,,300519,,*1B
$GPRMC,201922.80,A,2732.09313,S,04837.77792,W,0.993,,300519,,*15
$GPRMC,201922.90,A,2732.09314,S,04837.77793,W,0.914,,300519,,*1D
$GPRMC,201923.00,A,2732.09310,S,04837.77793,W,0.895,,300519,,*19
$GPRMC,201923.10,A,2732.09315,S,04837.77801,W,0.985,,300519,,*19
$GPRMC,201923.20,A,2732.09334,S,04837.77814,W,1.271,208.99,300519,,*08
$GPRMC,201923.30,A,2732.09346,S,04837.77822,W,1.399,206.83,300519,,*0B
$GPRMC,201923.40,A,2732.09347,S,04837.77824,W,1.272,206.73,300519,,*00
$GPRMC,201923.50,A,2732.09342,S,04837.77818,W,1.095,,300519,,*1E
$GPRMC,201923.60,A,2732.09342,S,04837.77821,W,1.014,,300519,,*1E
$GPRMC,201923.70,A,2732.09342,S,04837.77820,W,0.939,,300519,,*19
$GPRMC,201923.80,A,2732.09343,S,04837.77822,W,0.834,,300519,,*19
$GPRMC,201923.90,A,2732.09348,S,04837.77826,W,0.802,,300519,,*12
$GPRMC,201924.00,A,2732.09348,S,04837.77828,W,0.784,,300519,,*13
$GPRMC,201924.10,A,2732.09349,S,04837.77833,W,0.782,,300519,,*1F
$GPRMC,201924.20,A,2732.09348,S,04837.77833,W,0.667,,300519,,*17
$GPRMC,201924.30,A,2732.09349,S,04837.77833,W,0.561,,300519,,*12
$GPRMC,201924.40,A,2732.09352,S,04837.77835,W,0.472,,300519,,*1A
$GPRMC,201924.50,A,2732.09344,S,04837.77831,W,0.203,,300519,,*18
$GPRMC,201924.60,A,2732.09338,S,04837.77828,W,0.397,,300519,,*14
$GPRMC,201924.70,A,2732.09336,S,04837.77824,W,0.616,,300519,,*1B
$GPRMC,201924.80,A,2732.09341,S,04837.77828,W,0.671,,300519,,*19
$GPRMC,201924.90,A,2732.09346,S,04837.77833,W,0.734,,300519,,*15
$GPRMC,201925.00,A,2732.09349,S,04837.77840,W,0.767,,300519,,*10
$GPRMC,201925.10,A,2732.09350,S,04837.77847,W,0.820,,300519,,*12
$GPRMC,201925.20,A,2732.09354,S,04837.77857,W,0.912,,300519,,*14
$GPRMC,201925.30,A,2732.09359,S,04837.77861,W,0.854,,300519,,*1E
$GPRMC,201925.40,A,2732.09361,S,04837.77857,W,0.670,,300519,,*1F
$GPRMC,201925.50,A,2732.09358,S,04837.77851,W,0.876,,300519,,*1A
$GPRMC,201925.60,A,2732.09359,S,04837.77852,W,0.851,,300519,,*1E
$GPRMC,201925.70,A,2732.09362,S,04837.77852,W,0.819,,300519,,*1B
$GPRMC,201925.80,A,2732.09363,S,04837.77849,W,0.871,,300519,,*11
$GPRMC,201925.90,A,2732.09363,S,04837.77850,W,0.826,,300519,,*1A
$GPRMC,201926.00,A,2732.09364,S,04837.77853,W,0.715,,300519,,*1B
$GPRMC,201926.10,A,2732.09363,S,04837.77857,W,0.612,,300519,,*1F
$GPRMC,201926.20,A,2732.09361,S,04837.77858,W,0.602,,300519,,*10
$GPRMC,201926.30,A,2732.09359,S,04837.77861,W,0.513,,300519,,*13
$GPRMC,201926.40,A,2732.09362,S,04837.77865,W,0.435,,300519,,*1D
$GPRMC,201926.50,A,2732.09368,S,04837.77867,W,0.419,,300519,,*1A
$GPRMC,201926.60,A,2732.09365,S,04837.77869,W,0.320,,300519,,*17
$GPRMC,201926.70,A,2732.09359,S,04837.77868,W,0.278,,300519,,*14
$GPRMC,201926.80,A,2732.09352,S,04837.77860,W,0.436,,300519,,*14
$GPRMC,201926.90,A,2732.09346,S,04837.77852,W,0.592,,300519,,*1E
$GPRMC,201927.00,A,2732.09340,S,04837.77847,W,0.641,,300519,,*19
$GPRMC,201927.10,A,2732.09337,S,04837.77846,W,0.616,,300519,,*1B
$GPRMC,201927.20,A,2732.09326,S,04837.77835,W,0.796,,300519,,*15
$GPRMC,201927.30,A,2732.09313,S,04837.77824,W,1.014,,300519,,*1E
$GPRMC,201927.40,A,2732.09307,S,04837.77818,W,1.102,,300519,,*15
$GPRMC,201927.50,A,2732.09308,S,04837.77816,W,1.081,,300519,,*1F
$GPRMC,201927.60,A,2732.09306,S,04837.77816,W,0.991,,300519,,*1B
$GPRMC,201927.70,A,2732.09303,S,04837.77814,W,0.962,,300519,,*11
$GPRMC,201927.80,A,2732.09298,S,04837.77812,W,0.906,,300519,,*19
$GPRMC,201927.90,A,2732.09292,S,04837.77807,W,0.942,,300519,,*16
$GPRMC,201928.00,A,2732.09295,S,04837.77808,W,0.916,,300519,,*19
$GPRMC,201928.10,A,2732.09298,S,04837.77809,W,0.817,,300519,,*14
$GPRMC,201928.20,A,2732.09296,S,04837.77811,W,0.722,,300519,,*19
$GPRMC,201928.30,A,2732.09298,S,04837.77810,W,0.705,,300519,,*12
$GPRMC,201928.40,A,2732.09297,S,04837.77811,W,0.700,,300519,,*1E
$GPRMC,201928.50,A,2732.09295,S,04837.77812,W,0.678,,300519,,*10
$GPRMC,201928.60,A,2732.09288,S,04837.77810,W,0.780,,300519,,*1B
$GPRMC,201928.70,A,2732.09282,S,04837.77804,W,0.936,,300519,,*16
$GPRMC,201928.80,A,2732.09277,S,04837.77801,W,0.988,,300519,,*13
$GPRMC,201928.90,A,2732.09277,S,04837.77803,W,0.899,,300519,,*11
$GPRMC,201929.00,A,2732.09275,S,04837.77796,W,1.022,,300519,,*11
$GPRMC,201929.10,A,2732.09274,S,04837.77797,W,0.988,,300519,,*18
$GPRMC,201929.20,A,2732.09273,S,04837.77796,W,0.938,,300519,,*16
$GPRMC,201929.30,A,2732.09268,S,04837.77791,W,1.065,,300519,,*1A
$GPRMC,201929.40,A,2732.09269,S,04837.77794,W,0.984,,300519,,*1E
$GPRMC,201929.50,A,2732.09264,S,04837.77791,W,1.084,,300519,,*1F
$GPRMC,201929.60,A,2732.09251,S,04837.77781,W,1.348,106.10,300519,,*00
$GPRMC,201929.70,A,2732.09243,S,04837.77777,W,1.483,66.15,300519,,*39
$GPRMC,201929.80,A,2732.09244,S,04837.77778,W,1.570,46.97,300519,,*3B
$GPRMC,201929.90,A,2732.09242,S,04837.77775,W,1.704,37.73,300519,,*3C
$GPRMC,201930.00,A,2732.09237,S,04837.77771,W,1.777,34.04,300519,,*3C
$GPRMC,201930.10,A,2732.09236,S,04837.77774,W,1.749,30.52,300519,,*33
$GPRMC,201930.20,A,2732.09234,S,04837.77772,W,1.756,29.77,300519,,*35
$GPRMC,201930.30,A,2732.09230,S,04837.77769,W,1.857,28.60,300519,,*33
$GPRMC,201930.40,A,2732.09220,S,04837.77760,W,2.003,29.24,300519,,*37
$GPRMC,201930.50,A,2732.09212,S,04837.77755,W,2.136,29.49,300519,,*3D
$GPRMC,201930.60,A,2732.09200,S,04837.77748,W,2.301,29.16,300519,,*3D
$GPRMC,201930.70,A,2732.09187,S,04837.77739,W,2.465,29.62,300519,,*30
$GPRMC,201930.80,A,2732.09180,S,04837.77736,W,2.507,30.68,300519,,*30
$GPRMC,201930.90,A,2732.09181,S,04837.77738,W,2.433,30.99,300519,,*36
$GPRMC,201931.00,A,2732.09183,S,04837.77739,W,2.337,31.88,300519,,*3F
$GPRMC,201931.10,A,2732.09182,S,04837.77739,W,2.283,32.50,300519,,*37
$GPRMC,201931.20,A,2732.09171,S,04837.77735,W,2.384,32.03,300519,,*34
$GPRMC,201931.30,A,2732.09166,S,04837.77728,W,2.391,33.83,300519,,*32
$GPRMC,201931.40,A,2732.09174,S,04837.77738,W,2.180,33.29,300519,,*35
$GPRMC,201931.50,A,2732.09172,S,04837.77744,W,2.091,30.45,300519,,*31
$GPRMC,201931.60,A,2732.09177,S,04837.77752,W,1.920,27.83,300519,,*3C
$GPRMC,201931.70,A,2732.09182,S,04837.77756,W,1.782,27.78,300519,,*31
$GPRMC,201931.80,A,2732.09186,S,04837.77756,W,1.750,30.23,300519,,*3D
$GPRMC,201931.90,A,2732.09176,S,04837.77748,W,1.918,32.11,300519,,*3D
$GPRMC,201932.00,A,2732.09166,S,04837.77739,W,2.063,34.31,300519,,*32
$GPRMC,201932.10,A,2732.09160,S,04837.77735,W,2.039,35.77,300519,,*35
$GPRMC,201932.20,A,2732.09154,S,04837.77735,W,1.990,36.26,300519,,*3F
$GPRMC,201932.30,A,2732.09151,S,04837.77732,W,1.988,38.64,300519,,*3D
$GPRMC,201932.40,A,2732.09150,S,04837.77730,W,1.991,40.44,300519,,*3C
$GPRMC,201932.50,A,2732.09146,S,04837.77730,W,1.920,39.96,300519,,*31
$GPRMC,201932.60,A,2732.09143,S,04837.77733,W,1.832,36.66,300519,,*36
$GPRMC,201932.70,A,2732.09148,S,04837.77742,W,1.614,33.45,300519,,*34
$GPRMC,201932.80,A,2732.09143,S,04837.77738,W,1.654,31.56,300519,,*39
$GPRMC,201932.90,A,2732.09130,S,04837.77728,W,1.860,30.99,300519,,*36
$GPRMC,201933.00,A,2732.09127,S,04837.77727,W,1.834,31.50,300519,,*32
$GPRMC,201933.10,A,2732.09122,S,04837.77729,W,1.762,29.39,300519,,*32
$GPRMC,201933.20,A,2732.09129,S,04837.77741,W,1.552,25.28,300519,,*39
$GPRMC,201933.30,A,2732.09135,S,04837.77747,W,1.418,23.35,300519,,*36
$GPRMC,201933.40,A,2732.09133,S,04837.77745,W,1.472,24.93,300519,,*32
$GPRMC,201933.50,A,2732.09132,S,04837.77746,W,1.404,24.86,300519,,*34
$GPRMC,201933.60,A,2732.09125,S,04837.77744,W,1.439,22.83,300519,,*3E
$GPRMC,201933.70,A,2732.09120,S,04837.77742,W,1.504,20.87,300519,,*35
$GPRMC,201933.80,A,2732.09119,S,04837.77739,W,1.589,23.24,300519,,*33
$GPRMC,201933.90,A,2732.09129,S,04837.77745,W,1.387,26.36,300519,,*34
$GPRMC,201934.00,A,2732.09128,S,04837.77744,W,1.409,27.89,300519,,*3E
$GPRMC,201934.10,A,2732.09129,S,04837.77748,W,1.293,28.41,300519,,*3C
$GPRMC,201934.20,A,2732.09135,S,04837.77758,W,1.083,,300519,,*11
$GPRMC,201934.30,A,2732.09136,S,04837.77765,W,0.973,,300519,,*1A
$GPRMC,201934.40,A,2732.09132,S,04837.77765,W,0.937,,300519,,*19
$GPRMC,201934.50,A,2732.09128,S,04837.77764,W,0.918,,300519,,*1F
$GPRMC,201934.60,A,2732.09127,S,04837.77766,W,0.830,,300519,,*1A
$GPRMC,201934.70,A,2732.09130,S,04837.77771,W,0.648,,300519,,*1A
$GPRMC,201934.80,A,2732.09121,S,04837.77767,W,0.651,,300519,,*1A
$GPRMC,201934.90,A,2732.09110,S,04837.77759,W,0.753,,300519,,*17
$GPRMC,201935.00,A,2732.09097,S,04837.77749,W,0.875,,300519,,*1B
$GPRMC,201935.10,A,2732.09088,S,04837.77743,W,0.884,,300519,,*10
$GPRMC,201935.20,A,2732.09086,S,04837.77742,W,0.837,,300519,,*14
$GPRMC,201935.30,A,2732.09086,S,04837.77743,W,0.757,,300519,,*1D
$GPRMC,201935.40,A,2732.09090,S,04837.77745,W,0.643,,300519,,*1F
$GPRMC,201935.50,A,2732.09091,S,04837.77747,W,0.643,,300519,,*1D
$GPRMC,201935.60,A,2732.09084,S,04837.77740,W,0.737,,300519,,*1F
$GPRMC,201935.70,A,2732.09071,S,04837.77730,W,0.822,,300519,,*18
$GPRMC,201935.80,A,2732.09059,S,04837.77722,W,0.871,,300519,,*18
$GPRMC,201935.90,A,2732.09052,S,04837.77715,W,0.988,,300519,,*11
$GPRMC,201936.00,A,2732.09051,S,04837.77708,W,1.120,,300519,,*1F
$GPRMC,201936.10,A,2732.09057,S,04837.77710,W,1.057,,300519,,*10
$GPRMC,201936.20,A,2732.09065,S,04837.77715,W,0.997,,300519,,*13
$GPRMC,201936.30,A,2732.09070,S,04837.77722,W,0.791,,300519,,*1A
$GPRMC,201936.40,A,2732.09076,S,04837.77731,W,0.704,,300519,,*15
$GPRMC,201936.50,A,2732.09079,S,04837.77734,W,0.789,,300519,,*1B
$GPRMC,201936.60,A,2732.09076,S,04837.77731,W,0.662,,300519,,*16
$GPRMC,201936.70,A,2732.09069,S,04837.77727,W,0.436,,300519,,*1D
$GPRMC,201936.80,A,2732.09059,S,04837.77723,W,0.206,,300519,,*10
$GPRMC,201936.90,A,2732.09053,S,04837.77722,W,0.081,,300519,,*17
$GPRMC,201937.00,A,2732.09048,S,04837.77718,W,0.187,,300519,,*1B
$GPRMC,201937.10,A,2732.09048,S,04837.77710,W,0.518,,300519,,*10
$GPRMC,201937.20,A,2732.09047,S,04837.77707,W,0.676,,300519,,*11
$GPRMC,201937.30,A,2732.09044,S,04837.77704,W,0.703,,300519,,*13
$GPRMC,201937.40,A,2732.09035,S,04837.77699,W,0.664,,300519,,*17
$GPRMC,201937.50,A,2732.09026,S,04837.77689,W,0.795,,300519,,*1A
$GPRMC,201937.60,A,2732.09029,S,04837.77690,W,0.692,,300519,,*18
$GPRMC,201937.70,A,2732.09032,S,04837.77693,W,0.678,,300519,,*14
$GPRMC,201937.80,A,2732.09026,S,04837.77684,W,0.827,,300519,,*1C
$GPRMC,201937.90,A,2732.09006,S,04837.77666,W,1.140,,300519,,*1A
$GPRMC,201938.00,A,2732.08993,S,04837.77656,W,1.259,,300519,,*10
$GPRMC,201938.10,A,2732.08993,S,04837.77661,W,1.053,,300519,,*1D
$GPRMC,201938.20,A,2732.08989,S,04837.77665,W,0.923,,300519,,*1E
$GPRMC,201938.30,A,2732.08988,S,04837.77662,W,0.956,,300519,,*1B
$GPRMC,201938.40,A,2732.08993,S,04837.77668,W,0.778,,300519,,*1E
$GPRMC,201938.50,A,2732.08998,S,04837.77677,W,0.577,,300519,,*17
$GPRMC,201938.60,A,2732.08994,S,04837.77680,W,0.536,,300519,,*15
$GPRMC,201938.70,A,2732.08994,S,04837.77678,W,0.546,,300519,,*14
$GPRMC,201938.80,A,2732.09006,S,04837.77687,W,0.373,,300519,,*18
$GPRMC,201938.90,A,2732.09013,S,04837.77694,W,0.226,,300519,,*1E
$GPRMC,201939.00,A,2732.09012,S,04837.77699,W,0.059,,300519,,*10
$GPRMC,201939.10,A,2732.09017,S,04837.77709,W,0.270,,300519,,*15
$GPRMC,201939.20,A,2732.09034,S,04837.77727,W,0.685,,300519,,*15
$GPRMC,201939.30,A,2732.09053,S,04837.77747,W,1.167,304.47,300519,,*03
$GPRMC,201939.40,A,2732.09052,S,04837.77748,W,1.096,,300519,,*1F
$GPRMC,201939.50,A,2732.09045,S,04837.77743,W,0.907,,300519,,*13
$GPRMC,201939.60,A,2732.09048,S,04837.77748,W,1.020,,300519,,*1B
$GPRMC,201939.70,A,2732.09057,S,04837.77760,W,1.294,259.39,300519,,*09
$GPRMC,201939.80,A,2732.09052,S,04837.77759,W,1.205,240.11,300519,,*03
$GPRMC,201939.90,A,2732.09041,S,04837.77751,W,0.981,,300519,,*16
$GPRMC,201940.00,A,2732.09036,S,04837.77750,W,0.941,,300519,,*1C
$GPRMC,201940.10,A,2732.09043,S,04837.77759,W,1.146,,300519,,*18
$GPRMC,201940.20,A,2732.09056,S,04837.77775,W,1.493,228.64,300519,,*08
$GPRMC,201940.30,A,2732.09067,S,04837.77789,W,1.791,226.06,300519,,*03
$GPRMC,201940.40,A,2732.09070,S,04837.77794,W,1.807,225.08,300519,,*03
$GPRMC,201940.50,A,2732.09072,S,04837.77799,W,1.817,224.41,300519,,*00
$GPRMC,201940.60,A,2732.09073,S,04837.77800,W,1.742,222.95,300519,,*0D
$GPRMC,201940.70,A,2732.09070,S,04837.77798,W,1.598,220.84,300519,,*06
$GPRMC,201940.80,A,2732.09067,S,04837.77795,W,1.451,220.05,300519,,*0F
$GPRMC,201940.90,A,2732.09068,S,04837.77799,W,1.455,221.55,300519,,*0D
$GPRMC,201941.00,A,2732.09076,S,04837.77807,W,1.557,221.99,300519,,*01
$GPRMC,201941.10,A,2732.09082,S,04837.77815,W,1.667,222.15,300519,,*0F
$GPRMC,201941.20,A,2732.09083,S,04837.77818,W,1.642,221.47,300519,,*03
$GPRMC,201941.30,A,2732.09083,S,04837.77821,W,1.609,221.63,300519,,*01
$GPRMC,201941.40,A,2732.09075,S,04837.77817,W,1.406,221.00,300519,,*02
$GPRMC,201941.50,A,2732.09065,S,04837.77808,W,1.109,,300519,,*19
$GPRMC,201941.60,A,2732.09054,S,04837.77797,W,0.793,,300519,,*15
$GPRMC,201941.70,A,2732.09051,S,04837.77794,W,0.718,,300519,,*11
$GPRMC,201941.80,A,2732.09064,S,04837.77809,W,1.005,,300519,,*19
$GPRMC,201941.90,A,2732.09085,S,04837.77830,W,1.463,217.23,300519,,*02
$GPRMC,201942.00,A,2732.09102,S,04837.77847,W,1.789,214.97,300519,,*0D
$GPRMC,201942.10,A,2732.09112,S,04837.77856,W,1.908,212.34,300519,,*05
$GPRMC,201942.20,A,2732.09112,S,04837.77854,W,1.811,208.09,300519,,*08
$GPRMC,201942.30,A,2732.09110,S,04837.77855,W,1.558,206.85,300519,,*00
$GPRMC,201942.40,A,2732.09111,S,04837.77860,W,1.497,209.34,300519,,*07
$GPRMC,201942.50,A,2732.09110,S,04837.77863,W,1.432,214.08,300519,,*08
$GPRMC,201942.60,A,2732.09103,S,04837.77860,W,1.199,219.77,300519,,*0B
$GPRMC,201942.70,A,2732.09101,S,04837.77861,W,1.063,,300519,,*19
$GPRMC,201942.80,A,2732.09101,S,04837.77862,W,0.925,,300519,,*1F
$GPRMC,201942.90,A,2732.09104,S,04837.77866,W,0.837,,300519,,*1D
$GPRMC,201943.00,A,2732.09100,S,04837.77865,W,0.670,,300519,,*1F
$GPRMC,201943.10,A,2732.09099,S,04837.77866,W,0.595,,300519,,*14
$GPRMC,201943.20,A,2732.09099,S,04837.77869,W,0.581,,300519,,*1D
$GPRMC,201943.30,A,2732.09099,S,04837.77872,W,0.571,,300519,,*19
$GPRMC,201943.40,A,2732.09101,S,04837.77874,W,0.451,,300519,,*1B
$GPRMC,201943.50,A,2732.09108,S,04837.77882,W,0.479,,300519,,*10
$GPRMC,201943.60,A,2732.09104,S,04837.77880,W,0.379,,300519,,*1A
$GPRMC,201943.70,A,2732.09099,S,04837.77878,W,0.314,,300519,,*12
$GPRMC,201943.80,A,2732.09099,S,04837.77881,W,0.322,,300519,,*1E
$GPRMC,201943.90,A,2732.09101,S,04837.77884,W,0.251,,300519,,*1F
$GPRMC,201944.00,A,2732.09105,S,04837.77888,W,0.313,,300519,,*1E
$GPRMC,201944.10,A,2732.09103,S,04837.77888,W,0.253,,300519,,*1C
$GPRMC,201944.20,A,2732.09099,S,04837.77887,W,0.167,,300519,,*16
$GPRMC,201944.30,A,2732.09092,S,04837.77882,W,0.099,,300519,,*19
$GPRMC,201944.40,A,2732.09088,S,04837.77881,W,0.067,,300519,,*17
$GPRMC,201944.50,A,2732.09089,S,04837.77884,W,0.136,,300519,,*17
$GPRMC,201944.60,A,2732.09088,S,04837.77887,W,0.213,,300519,,*12
$GPRMC,201944.70,A,2732.09084,S,04837.77886,W,0.170,,300519,,*18
$GPRMC,201944.80,A,2732.09079,S,04837.77884,W,0.163,,300519,,*15
$GPRMC,201944.90,A,2732.09078,S,04837.77885,W,0.153,,300519,,*17
$GPRMC,201945.00,A,2732.09080,S,04837.77889,W,0.218,,300519,,*18
$GPRMC,201945.10,A,2732.09084,S,04837.77893,W,0.287,,300519,,*10
$GPRMC,201945.20,A,2732.09088,S,04837.77899,W,0.351,,300519,,*1F
$GPRMC,201945.30,A,2732.09091,S,04837.77901,W,0.432,,300519,,*14
$GPRMC,201945.40,A,2732.09098,S,04837.77908,W,0.557,,300519,,*11
$GPRMC,201945.50,A,2732.09104,S,04837.77914,W,0.696,,300519,,*17
$GPRMC,201945.60,A,2732.09108,S,04837.77920,W,0.752,,300519,,*16
$GPRMC,201945.70,A,2732.09111,S,04837.77923,W,0.807,,300519,,*13
$GPRMC,201945.80,A,2732.09113,S,04837.77926,W,0.748,,300519,,*1F
$GPRMC,201945.90,A,2732.09116,S,04837.77929,W,0.752,,300519,,*1F
$GPRMC,201946.00,A,2732.09120,S,04837.77934,W,0.802,,300519,,*16
$GPRMC,201946.10,A,2732.09123,S,04837.77938,W,0.745,,300519,,*14
$GPRMC,201946.20,A,2732.09129,S,04837.77945,W,0.781,,300519,,*1F
$GPRMC,201946.30,A,2732.09134,S,04837.77949,W,0.790,,300519,,*1E
$GPRMC,201946.40,A,2732.09134,S,04837.77951,W,0.706,,300519,,*1F
$GPRMC,201946.50,A,2732.09132,S,04837.77951,W,0.619,,300519,,*17
$GPRMC,201946.60,A,2732.09131,S,04837.77953,W,0.611,,300519,,*1D
$GPRMC,201946.70,A,2732.09131,S,04837.77955,W,0.588,,300519,,*19
$GPRMC,201946.80,A,2732.09131,S,04837.77957,W,0.528,,300519,,*1E
$GPRMC,201946.90,A,2732.09133,S,04837.77961,W,0.548,,300519,,*1E
$GPRMC,201947.00,A,2732.09132,S,04837.77962,W,0.521,,300519,,*1B
$GPRMC,201947.10,A,2732.09126,S,04837.77959,W,0.438,,300519,,*1E
$GPRMC,201947.20,A,2732.09122,S,04837.77958,W,0.337,,300519,,*10
$GPRMC,201947.30,A,2732.09121,S,04837.77958,W,0.257,,300519,,*15
$GPRMC,201947.40,A,2732.09125,S,04837.77962,W,0.181,,300519,,*17
$GPRMC,201947.50,A,2732.09130,S,04837.77966,W,0.148,,300519,,*13
$GPRMC,201947.60,A,2732.09135,S,04837.77972,W,0.177,,300519,,*1C
$GPRMC,201947.70,A,2732.09138,S,04837.77976,W,0.274,,300519,,*14
$GPRMC,201947.80,A,2732.09137,S,04837.77977,W,0.271,,300519,,*10
$GPRMC,201947.90,A,2732.09136,S,04837.77978,W,0.261,,300519,,*1E
$GPRMC,201948.00,A,2732.09136,S,04837.77980,W,0.301,,300519,,*18
$GPRMC,201948.10,A,2732.09136,S,04837.77982,W,0.266,,300519,,*1B
$GPRMC,201948.20,A,2732.09137,S,04837.77985,W,0.322,,300519,,*1F
$GPRMC,201948.30,A,2732.09139,S,04837.77989,W,0.389,,300519,,*1D
$GPRMC,201948.40,A,2732.09142,S,04837.77993,W,0.424,,300519,,*1D
$GPRMC,201948.50,A,2732.09145,S,04837.77995,W,0.440,,300519,,*1F
$GPRMC,201948.60,A,2732.09146,S,04837.77997,W,0.449,,300519,,*14
$GPRMC,201948.70,A,2732.09143,S,04837.77998,W,0.427,,300519,,*17
$GPRMC,201948.80,A,2732.09139,S,04837.77995,W,0.341,,300519,,*1F
$GPRMC,201948.90,A,2732.09140,S,04837.77998,W,0.363,,300519,,*1D
$GPRMC,201949.00,A,2732.09146,S,04837.78003,W,0.458,,300519,,*18
$GPRMC,201949.10,A,2732.09150,S,04837.78008,W,0.511,,300519,,*19
$GPRMC,201949.20,A,2732.09152,S,04837.78010,W,0.510,,300519,,*10
$GPRMC,201949.30,A,2732.09154,S,04837.78013,W,0.506,,300519,,*13
$GPRMC,201949.40,A,2732.09155,S,04837.78014,W,0.568,,300519,,*1A
$GPRMC,201949.50,A,2732.09158,S,04837.78016,W,0.610,,300519,,*18
$GPRMC,201949.60,A,2732.09164,S,04837.78020,W,0.651,,300519,,*14
$GPRMC,201949.70,A,2732.09168,S,04837.78022,W,0.755,,300519,,*1E
$GPRMC,201949.80,A,2732.09167,S,04837.78022,W,0.732,,300519,,*1F
